[
  {
    "id": 1,
    "name": "Samaritans Hong Kong",
    "when_to_use": "24/7 emotional support and suicide prevention",
    "phone": "2896-0000",
    "website": "https://www.samaritans.org.hk",
    "hours": "24/7",
    "languages": "Both",
    "audience": "any",
    "cost": "Free",
    "emergency_level": "high",
    "notes": "Multilingual crisis support"
  },
  {
    "id": 2,
    "name": "Suicide Prevention Services",
    "when_to_use": "Immediate suicide crisis intervention",
    "phone": "2382-0000",
    "website": "https://sps.org.hk",
    "hours": "24/7",
    "languages": "Both",
    "audience": "any",
    "cost": "Free",
    "emergency_level": "high",
    "notes": "Professional crisis counselors"
  },
  {
    "id": 3,
    "name": "Caritas Family Crisis Support Centre",
    "when_to_use": "Family and relationship crisis support",
    "phone": "18288",
    "website": "https://family.caritas.org.hk",
    "hours": "24/7",
    "languages": "Both",
    "audience": "adult",
    "cost": "Free",
    "emergency_level": "medium",
    "notes": "Family counseling and support"
  },
  {
    "id": 4,
    "name": "Youth Outreach",
    "when_to_use": "Youth mental health and crisis support",
    "phone": "81100881",
    "website": "https://yo.org.hk",
    "hours": "24/7",
    "languages": "Both",
    "audience": "youth",
    "cost": "Free",
    "emergency_level": "medium",
    "notes": "Specialized youth services"
  },
  {
    "id": 5,
    "name": "Richmond Fellowship Mental Health Line",
    "when_to_use": "Mental health information and support",
    "phone": "2772-0047",
    "website": "https://www.rfhk.org.hk",
    "hours": "Mon-Fri 9am-6pm",
    "languages": "Both",
    "audience": "adult",
    "cost": "Free",
    "emergency_level": "low",
    "notes": "Mental health education and referrals"
  },
  {
    "id": 6,
    "name": "Elderly Suicide Prevention Programme",
    "when_to_use": "Elderly mental health support",
    "phone": "2382-0881",
    "website": "https://www.sps.org.hk/elderly",
    "hours": "Mon-Fri 9am-5pm",
    "languages": "Both",
    "audience": "older",
    "cost": "Free",
    "emergency_level": "medium",
    "notes": "Specialized elderly support"
  },
  {
    "id": 7,
    "name": "Hong Kong Mental Health Association",
    "when_to_use": "General mental health support and counseling",
    "phone": "2528-0196",
    "website": "https://www.mhahk.org.hk",
    "hours": "Mon-Fri 9am-6pm",
    "languages": "Both",
    "audience": "any",
    "cost": "Low",
    "emergency_level": "low",
    "notes": "Professional counseling services"
  },
  {
    "id": 8,
    "name": "Open Up Counselling Service",
    "when_to_use": "LGBTQ+ mental health support",
    "phone": "2517-0564",
    "website": "https://openup.hk",
    "hours": "Mon-Fri 7pm-10pm",
    "languages": "Both",
    "audience": "youth",
    "cost": "Free",
    "emergency_level": "medium",
    "notes": "LGBTQ+ specialized support"
  },
  {
    "id": 9,
    "name": "Tung Wah Group of Hospitals",
    "when_to_use": "Community mental health services",
    "phone": "2859-7500",
    "website": "https://www.tungwah.org.hk",
    "hours": "Mon-Fri 9am-5pm",
    "languages": "Both",
    "audience": "any",
    "cost": "Low",
    "emergency_level": "low",
    "notes": "Community-based services"
  },
  {
    "id": 10,
    "name": "Mind HK",
    "when_to_use": "Mental health awareness and support",
    "phone": "2876-2002",
    "website": "https://www.mind.org.hk",
    "hours": "Mon-Fri 9am-6pm",
    "languages": "English",
    "audience": "adult",
    "cost": "Free",
    "emergency_level": "low",
    "notes": "English-speaking community focus"
  }
]